{"version": 0.6, "generator": "Overpass API 0.7.62.8 e802775f", "osm3s": {"timestamp_osm_base": "2025-12-08T22:14:59Z", "copyright": "The data included in this document is from www.openstreetmap.org. The data is made available under ODbL."}, "elements": [{"type": "node", "id": 256210396, "lat": 45.0829849, "lon": 7.6516331}, {"type": "node", "id": 429173758, "lat": 45.0828534, "lon": 7.6515311}, {"type": "node", "id": 429173767, "lat": 45.0828292, "lon": 7.6514668}, {"type": "node", "id": 443666502, "lat": 45.0801524, "lon": 7.6504407}, {"type": "node", "id": 444933529, "lat": 45.0797324, "lon": 7.6521546}, {"type": "node", "id": 444933530, "lat": 45.0794485, "lon": 7.6542847}, {"type": "node", "id": 444933562, "lat": 45.0816981, "lon": 7.6552769}, {"type": "node", "id": 504011515, "lat": 45.0815806, "lon": 7.6509904}, {"type": "node", "id": 952376005, "lat": 45.0828896, "lon": 7.6515828}, {"type": "node", "id": 1223076192, "lat": 45.0139332, "lon": 7.6285503, "tags": {"name": "Borgata Mirafiori", "place": "neighbourhood"}}, {"type": "node", "id": 1931793949, "lat": 45.0335939, "lon": 7.6375995, "tags": {"name": "Borgo Cina", "place": "neighbourhood"}}, {"type": "node", "id": 1935302960, "lat": 45.098587, "lon": 7.6480041, "tags": {"name": "Lucento", "name:pms": "Lusent", "place": "suburb", "wikidata": "Q3838399"}}, {"type": "node", "id": 1935302964, "lat": 45.1043837, "lon": 7.6322966, "tags": {"name": "Vallette", "name:pms": "Val\u00ebtte", "place": "suburb", "reg_name": "Val\u00ebtte", "wikidata": "Q4008222", "wikipedia": "it:Vallette"}}, {"type": "node", "id": 2036078189, "lat": 45.0825745, "lon": 7.6860091, "tags": {"name": "Aurora", "name:pms": "Aur\u00f2ra", "place": "suburb", "wikidata": "Q769702", "wikipedia": "it:Aurora (Torino)"}}, {"type": "node", "id": 2036078230, "lat": 45.0178283, "lon": 7.6328495, "tags": {"name": "Mirafiori Sud", "name:pms": "Mirafior Sud", "place": "suburb", "wikidata": "Q3858754"}}, {"type": "node", "id": 2036078250, "lat": 45.0704376, "lon": 7.6984692, "tags": {"name": "Vanchiglia", "name:pms": "Vanchija", "place": "suburb", "wikidata": "Q4008486", "wikipedia": "it:Vanchiglia"}}, {"type": "node", "id": 2036078254, "lat": 45.1313067, "lon": 7.6850598, "tags": {"name": "Villaretto", "name:pms": "Vilaret", "place": "suburb", "wikidata": "Q33512062", "wikipedia": "it:Villaretto"}}, {"type": "node", "id": 2038200594, "lat": 45.0753343, "lon": 7.6797349, "tags": {"name": "Quadrilatero Romano", "place": "neighbourhood", "wikidata": "Q3926603", "wikipedia": "it:Quadrilatero Romano"}}, {"type": "node", "id": 2047707531, "lat": 45.0873267, "lon": 7.6514945}, {"type": "node", "id": 2047707569, "lat": 45.0915811, "lon": 7.6543467}, {"type": "node", "id": 2047707570, "lat": 45.0916785, "lon": 7.6544124}, {"type": "node", "id": 2047707582, "lat": 45.0936362, "lon": 7.6324017}, {"type": "node", "id": 2332874657, "lat": 45.0796722, "lon": 7.6526394}, {"type": "node", "id": 2933583004, "lat": 45.0829347, "lon": 7.6516178}, {"type": "node", "id": 3485983877, "lat": 45.079877, "lon": 7.6515644}, {"type": "node", "id": 3485984187, "lat": 45.0820636, "lon": 7.6542271}, {"type": "node", "id": 3615809207, "lat": 45.0814911, "lon": 7.6551389}, {"type": "node", "id": 4553693050, "lat": 45.0498825, "lon": 7.6269521, "tags": {"name": "Citt\u00e0 Giardino", "name:pms": "Sit\u00e0 Giardin", "place": "neighbourhood", "wikidata": "Q3678413", "wikipedia": "it:Citt\u00e0 Giardino (Torino)"}}, {"type": "node", "id": 4553863660, "lat": 45.017366, "lon": 7.6178788, "tags": {"name": "Cime Bianche", "place": "neighbourhood"}}, {"type": "node", "id": 4553863661, "lat": 45.0200432, "lon": 7.6229952, "tags": {"name": "Il Villaggio", "place": "neighbourhood"}}, {"type": "node", "id": 4553870468, "lat": 45.0126877, "lon": 7.6549303, "tags": {"name": "Basse di Mirafiori", "place": "neighbourhood"}}, {"type": "node", "id": 5747870212, "lat": 45.1213143, "lon": 7.7450208, "tags": {"name": "Famolenta", "place": "quarter", "wikidata": "Q18443090"}}, {"type": "node", "id": 6085170264, "lat": 45.0895722, "lon": 7.6446902}, {"type": "node", "id": 6171509496, "lat": 45.0796767, "lon": 7.6325589, "tags": {"name": "Parella", "name:pms": "Parela", "place": "suburb"}}, {"type": "node", "id": 6172500307, "lat": 45.0683396, "lon": 7.6263865, "tags": {"name": "Pozzo Strada", "name:pms": "Pod\u00ebstr\u00e0", "place": "suburb"}}, {"type": "node", "id": 6172501669, "lat": 45.0793485, "lon": 7.6529994, "tags": {"name": "Campidoglio", "name:pms": "Campideuj", "place": "suburb", "wikidata": "Q3652013", "wikipedia": "it:Campidoglio (Torino)"}}, {"type": "node", "id": 6173226734, "lat": 45.0734308, "lon": 7.6615327, "tags": {"name": "Cit Turin", "name:pms": "Cit Turin", "place": "suburb"}}, {"type": "node", "id": 6173226735, "lat": 45.0697067, "lon": 7.6498785, "tags": {"name": "Cenisia", "name:pms": "Cenisia", "place": "suburb"}}, {"type": "node", "id": 6173273410, "lat": 45.0614631, "lon": 7.645838, "tags": {"name": "Borgo San Paolo", "name:pms": "San P\u00e0ul", "place": "suburb"}}, {"type": "node", "id": 6173288380, "lat": 45.0823608, "lon": 7.6617867, "tags": {"name": "San Donato", "name:pms": "San Don\u00e0", "place": "suburb", "wikidata": "Q3947018", "wikipedia": "it:San Donato (Torino)"}}, {"type": "node", "id": 6173628343, "lat": 45.0579245, "lon": 7.6649673, "tags": {"name": "Crocetta", "name:pms": "La Cros\u00ebtta", "place": "suburb"}}, {"type": "node", "id": 6173666600, "lat": 45.0688914, "lon": 7.6823806, "tags": {"name": "Centro", "name:pms": "S\u00e8nter", "place": "suburb", "wikidata": "Q3664899", "wikipedia": "it:Centro storico di Torino"}}, {"type": "node", "id": 6173683209, "lat": 45.0549503, "lon": 7.6801517, "tags": {"name": "San Salvario", "name:pms": "San Salvari", "place": "suburb", "wikidata": "Q3947924", "wikipedia": "it:San Salvario"}}, {"type": "node", "id": 6174580830, "lat": 45.0606675, "lon": 7.6991276, "tags": {"name": "Borgo Po", "name:pms": "Borgh \u00ebd P\u00f2", "place": "suburb", "wikidata": "Q3642514", "wikipedia": "it:Borgo Po"}}, {"type": "node", "id": 6174604885, "lat": 45.068287, "lon": 7.7201896, "tags": {"name": "Madonna del Pilone", "name:pms": "Mad\u00f2na d\u00ebl Pilon", "place": "suburb"}}, {"type": "node", "id": 6174637817, "lat": 45.0727824, "lon": 7.7165497, "tags": {"name": "Vanchiglietta", "name:pms": "Vanchij\u00ebtta", "place": "suburb"}}, {"type": "node", "id": 6176880988, "lat": 45.1135389, "lon": 7.6574445, "tags": {"name": "Barriera di Lanzo", "name:pms": "Bariera 'd Lans", "place": "suburb"}}, {"type": "node", "id": 6176928212, "lat": 45.100819, "lon": 7.6684496, "tags": {"name": "Madonna di Campagna", "name:pms": "Mad\u00f2na 'd Campagna", "place": "suburb", "wikidata": "Q3842708", "wikipedia": "it:Madonna di Campagna (Torino)"}}, {"type": "node", "id": 6176940554, "lat": 45.0973, "lon": 7.6780633, "tags": {"name": "Borgo Vittoria", "name:pms": "Borgh Vit\u00f2ria", "place": "suburb"}}, {"type": "node", "id": 6177198087, "lat": 45.1283575, "lon": 7.7093621, "tags": {"name": "Falchera", "name:pms": "Farchera", "place": "suburb", "wikidata": "Q3738555", "wikipedia": "it:Falchera"}}, {"type": "node", "id": 6180793734, "lat": 45.101778, "lon": 7.7278795, "tags": {"name": "Barca", "name:pms": "Barca", "place": "suburb"}}, {"type": "node", "id": 6180847263, "lat": 45.0923875, "lon": 7.6953196, "tags": {"name": "Barriera di Milano", "name:pms": "Bariera 'd Milan", "place": "suburb"}}, {"type": "node", "id": 6180874733, "lat": 45.1042567, "lon": 7.6993038, "tags": {"name": "Rebaudengo", "name:pms": "Rebaudengh", "place": "suburb"}}, {"type": "node", "id": 6180987596, "lat": 45.0930538, "lon": 7.7149486, "tags": {"name": "Regio Parco", "name:pms": "Regi Parch", "place": "suburb"}}, {"type": "node", "id": 6181549636, "lat": 45.0403513, "lon": 7.628422, "tags": {"name": "Mirafiori Nord", "name:pms": "Mirafior N\u00f2rd", "place": "suburb"}}, {"type": "node", "id": 6181575722, "lat": 45.0456578, "lon": 7.6455291, "tags": {"name": "Santa Rita", "name:pms": "Santa Rita", "place": "suburb"}}, {"type": "node", "id": 6181637678, "lat": 45.0370503, "lon": 7.6570621, "tags": {"name": "Filadelfia", "name:pms": "Filadelfia", "place": "suburb"}}, {"type": "node", "id": 6181683958, "lat": 45.0261518, "lon": 7.6498858, "tags": {"name": "Lingotto", "name:pms": "Ling\u00f2t", "place": "suburb", "wikidata": "Q3832904", "wikipedia": "it:Lingotto (quartiere)"}}, {"type": "node", "id": 6181694730, "lat": 45.030171, "lon": 7.6678494, "tags": {"name": "Nizza Millefonti", "name:pms": "Nissa Milafont", "place": "suburb"}}, {"type": "node", "id": 6182601507, "lat": 45.1305682, "lon": 7.710938, "tags": {"name": "Falchera Nuova", "place": "neighbourhood"}}, {"type": "node", "id": 6182601508, "lat": 45.1257843, "lon": 7.7096719, "tags": {"name": "Falchera Vecchia", "place": "neighbourhood"}}, {"type": "node", "id": 6182601509, "lat": 45.1157005, "lon": 7.7051015, "tags": {"name": "Pietra Alta", "place": "neighbourhood", "wikidata": "Q16590345", "wikipedia": "it:Pietra Alta"}}, {"type": "node", "id": 6182601512, "lat": 45.0930471, "lon": 7.6851941, "tags": {"name": "Spina 4", "place": "neighbourhood"}}, {"type": "node", "id": 6182614496, "lat": 45.0917058, "lon": 7.6876703, "tags": {"name": "Monte Bianco", "place": "neighbourhood"}}, {"type": "node", "id": 6182621428, "lat": 45.0955154, "lon": 7.6324975, "tags": {"alt_name": "E27/E29", "name": "Borgata Frassati", "place": "neighbourhood"}}, {"type": "node", "id": 6182621429, "lat": 45.1019679, "lon": 7.643913, "tags": {"name": "Villaggio Santa Caterina", "place": "neighbourhood"}}, {"type": "node", "id": 6182621430, "lat": 45.0924631, "lon": 7.6740396, "tags": {"alt_name": "Vecchia Barriera di Lanzo", "name": "Borgata Tesso", "place": "neighbourhood"}}, {"type": "node", "id": 6182638637, "lat": 45.0912252, "lon": 7.6562455, "tags": {"name": "Borgata Ceronda", "place": "neighbourhood"}}, {"type": "node", "id": 6182638638, "lat": 45.0840575, "lon": 7.6563205, "tags": {"name": "Martinetto", "place": "neighbourhood"}}, {"type": "node", "id": 6182638639, "lat": 45.0845746, "lon": 7.6648124, "tags": {"name": "Basso San Donato", "place": "neighbourhood"}}, {"type": "node", "id": 6182638640, "lat": 45.0893165, "lon": 7.6707133, "tags": {"name": "Parco Dora (Spina 3)", "place": "neighbourhood"}}, {"type": "node", "id": 6182638641, "lat": 45.082105, "lon": 7.6205881, "tags": {"name": "Alta Parella", "place": "neighbourhood"}}, {"type": "node", "id": 6184425629, "lat": 45.1106769, "lon": 7.6360165, "tags": {"name": "Continassa", "place": "neighbourhood"}}, {"type": "node", "id": 6184439822, "lat": 45.073064, "lon": 7.6097516, "tags": {"name": "Aeronautica", "place": "neighbourhood"}}, {"type": "node", "id": 6184439823, "lat": 45.0729125, "lon": 7.6168541, "tags": {"name": "Venchi Unica", "place": "neighbourhood"}}, {"type": "node", "id": 6184439824, "lat": 45.062501, "lon": 7.6200512, "tags": {"name": "Borgata Lesna", "name:pms": "Lesna", "place": "neighbourhood"}}, {"type": "node", "id": 6184439825, "lat": 45.0603336, "lon": 7.6402215, "tags": {"name": "Rione Lancia", "place": "neighbourhood"}}, {"type": "node", "id": 6184439826, "lat": 45.0555742, "lon": 7.6493195, "tags": {"name": "Polo Nord", "place": "neighbourhood"}}, {"type": "node", "id": 6184456730, "lat": 45.0448146, "lon": 7.6147076, "tags": {"name": "Gerbido", "place": "neighbourhood", "wikidata": "Q2094555", "wikipedia": "it:Gerbido (Grugliasco)"}}, {"type": "node", "id": 6184456731, "lat": 45.0389167, "lon": 7.6206943, "tags": {"name": "Centro Europa", "place": "neighbourhood"}}, {"type": "node", "id": 6184456732, "lat": 45.0540014, "lon": 7.6261445, "tags": {"name": "Casermette", "place": "neighbourhood"}}, {"type": "node", "id": 6184456733, "lat": 45.0555627, "lon": 7.6209517, "tags": {"name": "Borgata Lesna (Grugliasco)", "place": "neighbourhood"}}, {"type": "node", "id": 6184474132, "lat": 45.0636036, "lon": 7.6883449, "tags": {"name": "Borgo Nuovo", "name:pms": "Borgh Neuv", "place": "neighbourhood"}}, {"type": "node", "id": 6184474133, "lat": 45.0592839, "lon": 7.6728364, "tags": {"name": "San Secondo", "name:pms": "San Scond", "place": "neighbourhood"}}, {"type": "node", "id": 6184474134, "lat": 45.0771287, "lon": 7.683356, "tags": {"name": "Porta Palazzo", "place": "neighbourhood", "wikidata": "Q3908757", "wikipedia": "it:Porta Palazzo"}}, {"type": "node", "id": 6184474135, "lat": 45.0812652, "lon": 7.6834097, "tags": {"name": "Borgo Dora", "place": "neighbourhood", "wikidata": "Q3642489"}}, {"type": "node", "id": 6184474136, "lat": 45.082106, "lon": 7.6758995, "tags": {"name": "Valdocco", "place": "neighbourhood", "wikidata": "Q374731"}}, {"type": "node", "id": 6184474137, "lat": 45.0770681, "lon": 7.6958766, "tags": {"name": "Rossini", "place": "neighbourhood"}}, {"type": "node", "id": 6184484977, "lat": 45.0411683, "lon": 7.6728471, "tags": {"alt_name": "Barriera di Nizza", "name": "Molinette", "place": "neighbourhood"}}, {"type": "node", "id": 6184484978, "lat": 45.0208931, "lon": 7.6658734, "tags": {"name": "Italia '61", "place": "neighbourhood"}}, {"type": "node", "id": 6184519658, "lat": 45.0400993, "lon": 7.6821222, "tags": {"name": "Pilonetto", "place": "neighbourhood"}}, {"type": "node", "id": 6184519661, "lat": 45.0564305, "lon": 7.6951631, "tags": {"name": "Crimea", "place": "neighbourhood"}}, {"type": "node", "id": 6184536794, "lat": 45.0870186, "lon": 7.7330252, "tags": {"name": "Borgata Rosa", "place": "neighbourhood"}}, {"type": "node", "id": 6184718081, "lat": 45.074459, "lon": 7.5980663, "tags": {"name": "Borgata Paradiso", "place": "suburb"}}, {"type": "node", "id": 6196526152, "lat": 45.1191125, "lon": 7.6516434, "tags": {"name": "Rigola", "place": "neighbourhood"}}, {"type": "node", "id": 6221831572, "lat": 45.0636052, "lon": 7.6065351, "tags": {"name": "Borgata Quaglia", "place": "neighbourhood"}}, {"type": "node", "id": 7137470647, "lat": 45.0828949, "lon": 7.6518864}, {"type": "node", "id": 7137470648, "lat": 45.0827036, "lon": 7.6514189}, {"type": "node", "id": 7707020146, "lat": 45.0891312, "lon": 7.6950203, "tags": {"name": "Monte Rosa", "place": "neighbourhood"}}, {"type": "node", "id": 7976096770, "lat": 45.1062899, "lon": 7.7548768, "tags": {"name": "Oltrepo", "place": "suburb"}}, {"type": "node", "id": 7976096771, "lat": 45.1156989, "lon": 7.7466325, "tags": {"name": "Pescarito", "place": "suburb"}}, {"type": "node", "id": 7976096774, "lat": 45.0932337, "lon": 7.7502713, "tags": {"name": "Sant'Anna", "place": "suburb"}}, {"type": "node", "id": 8150974363, "lat": 45.0797535, "lon": 7.6520684, "tags": {"crossing:island": "no", "crossing:markings": "yes", "crossing:signals": "no", "highway": "crossing", "tactile_paving": "no"}}, {"type": "node", "id": 8167015589, "lat": 45.0819375, "lon": 7.6511266}, {"type": "node", "id": 8167015596, "lat": 45.0816689, "lon": 7.6510237}, {"type": "node", "id": 8167015611, "lat": 45.0818837, "lon": 7.651106}, {"type": "node", "id": 8551660014, "lat": 45.0876365, "lon": 7.6517022}, {"type": "node", "id": 8551662317, "lat": 45.087461, "lon": 7.6515847}, {"type": "node", "id": 9532904692, "lat": 45.1244559, "lon": 7.7308537, "tags": {"name": "Villaggio Olimpia", "place": "suburb", "wikipedia": "it:Settimo Torinese#Villaggio Olimpia"}}, {"type": "node", "id": 11506831794, "lat": 45.1159669, "lon": 7.640853, "tags": {"name": "Gallo Praile", "place": "neighbourhood"}}, {"type": "node", "id": 11974130253, "lat": 45.0829152, "lon": 7.6518294}, {"type": "node", "id": 12107608424, "lat": 45.0827961, "lon": 7.6514542, "tags": {"highway": "give_way"}}, {"type": "node", "id": 12966012497, "lat": 45.1033847, "lon": 7.6622644}, {"type": "node", "id": 12966012498, "lat": 45.1049634, "lon": 7.6631357}, {"type": "node", "id": 12966167074, "lat": 45.1054217, "lon": 7.6631096}, {"type": "node", "id": 12966167075, "lat": 45.1058091, "lon": 7.6549883}, {"type": "node", "id": 12966167076, "lat": 45.1058259, "lon": 7.6546869}, {"type": "node", "id": 12966167077, "lat": 45.1062954, "lon": 7.6547765}, {"type": "node", "id": 12966167078, "lat": 45.1084604, "lon": 7.6522284}, {"type": "node", "id": 12966167079, "lat": 45.1062101, "lon": 7.6482017}, {"type": "node", "id": 12966167080, "lat": 45.0980391, "lon": 7.6346597}, {"type": "node", "id": 12966167081, "lat": 45.0971737, "lon": 7.6344121}, {"type": "node", "id": 12966167083, "lat": 45.104737, "lon": 7.64576}, {"type": "node", "id": 13328827518, "lat": 45.0121948, "lon": 7.6634007, "tags": {"name": "Borgo San Pietro", "place": "quarter"}}, {"type": "way", "id": 356425934, "nodes": [443666502, 3485983877, 8150974363, 444933529, 2332874657, 444933530, 3615809207, 444933562, 3485984187, 7137470647, 11974130253, 256210396, 2933583004, 952376005, 429173758, 429173767, 12107608424, 7137470648, 8167015589, 8167015611, 8167015596, 504011515, 443666502], "tags": {"name": "Borgo Campidoglio", "place": "neighbourhood"}}, {"type": "way", "id": 659352516, "nodes": [2047707531, 6085170264, 2047707582], "tags": {"admin_level": "10", "boundary": "administrative"}}, {"type": "way", "id": 659739529, "nodes": [2047707570, 2047707569, 8551660014, 8551662317, 2047707531], "tags": {"admin_level": "10", "boundary": "administrative"}}, {"type": "way", "id": 1411117145, "nodes": [2047707570, 12966012497, 12966012498, 12966167074]}, {"type": "way", "id": 1411139180, "nodes": [12966167074, 12966167075, 12966167076, 12966167077, 12966167078, 12966167079, 12966167083]}, {"type": "way", "id": 1411139181, "nodes": [12966167083, 12966167080, 12966167081, 2047707582]}, {"type": "relation", "id": 9173837, "members": [{"type": "way", "ref": 659739529, "role": "outer"}, {"type": "way", "ref": 659352516, "role": "outer"}, {"type": "way", "ref": 1411139181, "role": "outer"}, {"type": "way", "ref": 1411139180, "role": "outer"}, {"type": "way", "ref": 1411117145, "role": "outer"}, {"type": "node", "ref": 1935302960, "role": "admin_centre"}], "tags": {"boundary": "place", "name": "Lucento", "note": "Confini della parte orientale dell'ex Quartiere 15 della divisione a 23, separandosi dalle Vallette su via Sansovino, con l'aggiunta della zona di lungo Dora Liguria (ex Q.14) ora in Circ. 5, ed escludendo la Pellerina perch\u00e9 non edificata.", "place": "suburb", "type": "boundary"}}]}